{"type": "FeatureCollection", "features": [{"type": "Feature", "geometry": {"type": "Point", "coordinates": [-4.257643, 55.859756]}, "properties": {"name": "Glasgow Central", "passengers": 25293930, "rank": 17, "interchanges": 3879568, "crs": "GLC"}}, {"type": "Feature", "geometry": {"type": "Point", "coordinates": [-3.188228, 55.952393]}, "properties": {"name": "Edinburgh Waverley", "passengers": 22755164, "rank": 20, "interchanges": 1583408, "crs": "EDB"}}, {"type": "Feature", "geometry": {"type": "Point", "coordinates": [-4.251456, 55.862188]}, "properties": {"name": "Glasgow Queen Street", "passengers": 14950752, "rank": 30, "interchanges": 2008872, "crs": "GLQ"}}, {"type": "Feature", "geometry": {"type": "Point", "coordinates": [-3.218449, 55.945808]}, "properties": {"name": "Haymarket", "passengers": 3334408, "rank": 163, "interchanges": 730121, "crs": "HYM"}}, {"type": "Feature", "geometry": {"type": "Point", "coordinates": [-4.424506, 55.84735]}, "properties": {"name": "Paisley Gilmour Street", "passengers": 3241120, "rank": 165, "interchanges": 193147, "crs": "PYG"}}, {"type": "Feature", "geometry": {"type": "Point", "coordinates": [-4.308806, 55.869888]}, "properties": {"name": "Partick", "passengers": 3091680, "rank": 174, "interchanges": 560824, "crs": "PTK"}}, {"type": "Feature", "geometry": {"type": "Point", "coordinates": [-3.93562, 56.119817]}, "properties": {"name": "Stirling", "passengers": 2527778, "rank": 224, "interchanges": 462222, "crs": "STG"}}, {"type": "Feature", "geometry": {"type": "Point", "coordinates": [-2.098685, 57.143704]}, "properties": {"name": "Aberdeen", "passengers": 2377660, "rank": 242, "interchanges": 218903, "crs": "ABD"}}, {"type": "Feature", "geometry": {"type": "Point", "coordinates": [-4.283589, 55.861551]}, "properties": {"name": "Exhibition Centre (Glasgow)", "passengers": 1772544, "rank": 315, "interchanges": 0, "crs": "EXG"}}, {"type": "Feature", "geometry": {"type": "Point", "coordinates": [-2.971205, 56.456486]}, "properties": {"name": "Dundee", "passengers": 1763546, "rank": 318, "interchanges": 79138, "crs": "DEE"}}, {"type": "Feature", "geometry": {"type": "Point", "coordinates": [-4.26982, 55.864682]}, "properties": {"name": "Charing Cross (Glasgow)", "passengers": 1562948, "rank": 352, "interchanges": 0, "crs": "CHC"}}, {"type": "Feature", "geometry": {"type": "Point", "coordinates": [-4.035976, 55.955677]}, "properties": {"name": "Croy", "passengers": 1402586, "rank": 396, "interchanges": 0, "crs": "CRO"}}, {"type": "Feature", "geometry": {"type": "Point", "coordinates": [-4.314668, 55.879754]}, "properties": {"name": "Hyndland", "passengers": 1389628, "rank": 401, "interchanges": 989587, "crs": "HYN"}}, {"type": "Feature", "geometry": {"type": "Point", "coordinates": [-4.250694, 55.857304]}, "properties": {"name": "Argyle Street", "passengers": 1279026, "rank": 437, "interchanges": 0, "crs": "AGS"}}, {"type": "Feature", "geometry": {"type": "Point", "coordinates": [-4.261132, 55.826555]}, "properties": {"name": "Mount Florida", "passengers": 1184706, "rank": 465, "interchanges": 5394, "crs": "MFL"}}, {"type": "Feature", "geometry": {"type": "Point", "coordinates": [-4.223361, 57.47987]}, "properties": {"name": "Inverness", "passengers": 1172640, "rank": 467, "interchanges": 54976, "crs": "INV"}}, {"type": "Feature", "geometry": {"type": "Point", "coordinates": [-4.503637, 55.834709]}, "properties": {"name": "Johnstone (Renfrewshire)", "passengers": 1139862, "rank": 483, "interchanges": 0, "crs": "JHN"}}, {"type": "Feature", "geometry": {"type": "Point", "coordinates": [-3.595852, 55.976452]}, "properties": {"name": "Linlithgow", "passengers": 1058874, "rank": 509, "interchanges": 0, "crs": "LIN"}}, {"type": "Feature", "geometry": {"type": "Point", "coordinates": [-3.994325, 55.791674]}, "properties": {"name": "Motherwell", "passengers": 1049030, "rank": 514, "interchanges": 100406, "crs": "MTH"}}, {"type": "Feature", "geometry": {"type": "Point", "coordinates": [-3.544351, 55.901384]}, "properties": {"name": "Livingston North", "passengers": 1033616, "rank": 520, "interchanges": 0, "crs": "LSN"}}, {"type": "Feature", "geometry": {"type": "Point", "coordinates": [-4.321957, 55.88935]}, "properties": {"name": "Anniesland", "passengers": 1013182, "rank": 532, "interchanges": 0, "crs": "ANL"}}, {"type": "Feature", "geometry": {"type": "Point", "coordinates": [-3.396187, 56.034677]}, "properties": {"name": "Inverkeithing", "passengers": 953162, "rank": 560, "interchanges": 44854, "crs": "INK"}}, {"type": "Feature", "geometry": {"type": "Point", "coordinates": [-3.636096, 55.897152]}, "properties": {"name": "Bathgate", "passengers": 938148, "rank": 569, "interchanges": 0, "crs": "BHG"}}, {"type": "Feature", "geometry": {"type": "Point", "coordinates": [-4.212104, 55.830592]}, "properties": {"name": "Rutherglen", "passengers": 871338, "rank": 605, "interchanges": 0, "crs": "RUT"}}, {"type": "Feature", "geometry": {"type": "Point", "coordinates": [-3.167028, 56.112058]}, "properties": {"name": "Kirkcaldy", "passengers": 856236, "rank": 612, "interchanges": 19552, "crs": "KDY"}}, {"type": "Feature", "geometry": {"type": "Point", "coordinates": [-3.439698, 56.392094]}, "properties": {"name": "Perth", "passengers": 853236, "rank": 613, "interchanges": 110940, "crs": "PTH"}}, {"type": "Feature", "geometry": {"type": "Point", "coordinates": [-4.240118, 55.859564]}, "properties": {"name": "High Street (Glasgow)", "passengers": 841292, "rank": 623, "interchanges": 0, "crs": "HST"}}, {"type": "Feature", "geometry": {"type": "Point", "coordinates": [-4.173008, 55.819606]}, "properties": {"name": "Cambuslang", "passengers": 831150, "rank": 631, "interchanges": 54701, "crs": "CBL"}}, {"type": "Feature", "geometry": {"type": "Point", "coordinates": [-3.830581, 56.022704]}, "properties": {"name": "Larbert", "passengers": 812100, "rank": 642, "interchanges": 0, "crs": "LBT"}}, {"type": "Feature", "geometry": {"type": "Point", "coordinates": [-3.982912, 55.863979]}, "properties": {"name": "Airdrie", "passengers": 809690, "rank": 644, "interchanges": 0, "crs": "ADR"}}, {"type": "Feature", "geometry": {"type": "Point", "coordinates": [-4.226056, 55.848963]}, "properties": {"name": "Bridgeton", "passengers": 802898, "rank": 650, "interchanges": 0, "crs": "BDG"}}, {"type": "Feature", "geometry": {"type": "Point", "coordinates": [-4.625876, 55.458142]}, "properties": {"name": "Ayr", "passengers": 795560, "rank": 654, "interchanges": 38459, "crs": "AYR"}}, {"type": "Feature", "geometry": {"type": "Point", "coordinates": [-4.710019, 55.655951]}, "properties": {"name": "Kilwinning", "passengers": 781106, "rank": 661, "interchanges": 83979, "crs": "KWN"}}, {"type": "Feature", "geometry": {"type": "Point", "coordinates": [-3.792244, 55.991815]}, "properties": {"name": "Falkirk High", "passengers": 773200, "rank": 668, "interchanges": 3274, "crs": "FKK"}}, {"type": "Feature", "geometry": {"type": "Point", "coordinates": [-4.426681, 55.911929]}, "properties": {"name": "Dalmuir", "passengers": 767842, "rank": 669, "interchanges": 4218, "crs": "DMR"}}, {"type": "Feature", "geometry": {"type": "Point", "coordinates": [-4.31458, 55.941365]}, "properties": {"name": "Milngavie", "passengers": 762998, "rank": 670, "interchanges": 0, "crs": "MLN"}}, {"type": "Feature", "geometry": {"type": "Point", "coordinates": [-4.224915, 55.903878]}, "properties": {"name": "Bishopbriggs", "passengers": 758698, "rank": 673, "interchanges": 0, "crs": "BBG"}}, {"type": "Feature", "geometry": {"type": "Point", "coordinates": [-4.224374, 55.856704]}, "properties": {"name": "Bellgrove", "passengers": 744374, "rank": 684, "interchanges": 25024, "crs": "BLG"}}, {"type": "Feature", "geometry": {"type": "Point", "coordinates": [-4.26675, 55.835304]}, "properties": {"name": "Queens Park (Glasgow)", "passengers": 728778, "rank": 693, "interchanges": 0, "crs": "QPK"}}, {"type": "Feature", "geometry": {"type": "Point", "coordinates": [-4.15389, 55.921318]}, "properties": {"name": "Lenzie", "passengers": 719886, "rank": 697, "interchanges": 0, "crs": "LNZ"}}, {"type": "Feature", "geometry": {"type": "Point", "coordinates": [-4.284317, 55.833946]}, "properties": {"name": "Crossmyloof", "passengers": 710384, "rank": 704, "interchanges": 0, "crs": "CMY"}}, {"type": "Feature", "geometry": {"type": "Point", "coordinates": [-4.086698, 55.823528]}, "properties": {"name": "Uddingston", "passengers": 702066, "rank": 710, "interchanges": 0, "crs": "UDD"}}, {"type": "Feature", "geometry": {"type": "Point", "coordinates": [-4.500486, 55.902264]}, "properties": {"name": "Bishopton (Renfrewshire)", "passengers": 701908, "rank": 711, "interchanges": 0, "crs": "BPT"}}, {"type": "Feature", "geometry": {"type": "Point", "coordinates": [-3.714973, 55.984737]}, "properties": {"name": "Polmont", "passengers": 696294, "rank": 718, "interchanges": 0, "crs": "PMT"}}, {"type": "Feature", "geometry": {"type": "Point", "coordinates": [-4.038885, 55.773194]}, "properties": {"name": "Hamilton Central", "passengers": 686520, "rank": 728, "interchanges": 6116, "crs": "HNC"}}, {"type": "Feature", "geometry": {"type": "Point", "coordinates": [-4.675145, 55.610874]}, "properties": {"name": "Irvine", "passengers": 685016, "rank": 731, "interchanges": 0, "crs": "IRV"}}, {"type": "Feature", "geometry": {"type": "Point", "coordinates": [-4.054808, 55.77886]}, "properties": {"name": "Hamilton West", "passengers": 683164, "rank": 733, "interchanges": 0, "crs": "HNW"}}, {"type": "Feature", "geometry": {"type": "Point", "coordinates": [-4.33488, 55.904807]}, "properties": {"name": "Westerton", "passengers": 674870, "rank": 741, "interchanges": 26787, "crs": "WES"}}, {"type": "Feature", "geometry": {"type": "Point", "coordinates": [-4.732758, 56.004208]}, "properties": {"name": "Helensburgh Central", "passengers": 671306, "rank": 743, "interchanges": 0, "crs": "HLC"}}, {"type": "Feature", "geometry": {"type": "Point", "coordinates": [-4.160044, 55.853537]}, "properties": {"name": "Shettleston", "passengers": 651582, "rank": 755, "interchanges": 0, "crs": "SLS"}}]}